dam_code,dam_name,station_code,station_name,basin,latitude,longitude,distance_km,selection_type,selection_reason,note,observed_at,water_level,flow_rate,source
1003110,충주,9000252,단양군(상진대교),,,,,AUTO_SELECTED,"공식 API 연결 후보 중 실제 수위 시자료와 제원 좌표가 확인되는 관측소를 우선하고, 그중 댐과의 직선거리가 가장 가까운 관측소를 선정",추후 수계도 확인 후 MANUAL_CONFIRMED로 변경 가능,2026-05-27 10:00:00,9.5500,0.0000,K_WATER_HOURWAL
1006110,횡성,1006610,횡성군(율동리),한강,37.55777778,128.10694444,5.40,AUTO_SELECTED,"공식 API 연결 후보 중 실제 수위 시자료와 제원 좌표가 확인되는 관측소를 우선하고, 그중 댐과의 직선거리가 가장 가까운 관측소를 선정",추후 수계도 확인 후 MANUAL_CONFIRMED로 변경 가능,2026-05-27 10:00:00,0.6900,1.7300,K_WATER_HOURWAL
1012110,소양강,1010640,양구군(각시교),한강,38.31888889,128.55000000,,AUTO_SELECTED,"공식 API 연결 후보 중 실제 수위 시자료와 제원 좌표가 확인되는 관측소를 우선하고, 그중 댐과의 직선거리가 가장 가까운 관측소를 선정",추후 수계도 확인 후 MANUAL_CONFIRMED로 변경 가능,2026-05-27 10:00:00,0.8900,0.0000,K_WATER_HOURWAL
2001110,안동,2002692,안동시(포진교),낙동강,36.53666667,128.79583333,5.75,AUTO_SELECTED,"공식 API 연결 후보 중 실제 수위 시자료와 제원 좌표가 확인되는 관측소를 우선하고, 그중 댐과의 직선거리가 가장 가까운 관측소를 선정",추후 수계도 확인 후 MANUAL_CONFIRMED로 변경 가능,2026-05-27 10:00:00,1.5000,0.0000,K_WATER_HOURWAL
2002110,임하,2002686,안동시(신덕교),낙동강,36.51944444,128.83777778,4.41,AUTO_SELECTED,"공식 API 연결 후보 중 실제 수위 시자료와 제원 좌표가 확인되는 관측소를 우선하고, 그중 댐과의 직선거리가 가장 가까운 관측소를 선정",추후 수계도 확인 후 MANUAL_CONFIRMED로 변경 가능,2026-05-27 10:00:00,1.7500,0.0000,K_WATER_HOURWAL
2002111,성덕,2002613,포항시(상사4교),낙동강,36.25083333,129.08861111,9.64,AUTO_SELECTED,"공식 API 연결 후보 중 실제 수위 시자료와 제원 좌표가 확인되는 관측소를 우선하고, 그중 댐과의 직선거리가 가장 가까운 관측소를 선정",추후 수계도 확인 후 MANUAL_CONFIRMED로 변경 가능,,,,
2004101,영주,2001658,봉화군(양삼교),낙동강,36.76750000,128.88555556,18.66,AUTO_SELECTED,"공식 API 연결 후보 중 실제 수위 시자료와 제원 좌표가 확인되는 관측소를 우선하고, 그중 댐과의 직선거리가 가장 가까운 관측소를 선정",추후 수계도 확인 후 MANUAL_CONFIRMED로 변경 가능,,,,
2008101,군위,2008615,군위군(동곡교),,,,,AUTO_SELECTED,"공식 API 연결 후보 중 실제 수위 시자료와 제원 좌표가 확인되는 관측소를 우선하고, 그중 댐과의 직선거리가 가장 가까운 관측소를 선정",추후 수계도 확인 후 MANUAL_CONFIRMED로 변경 가능,2026-05-27 10:00:00,-0.4000,0.0900,K_WATER_HOURWAL
2012101,보현산,2008605,군위군(동곡교),낙동강,36.16138889,128.82305556,9.89,AUTO_SELECTED,"공식 API 연결 후보 중 실제 수위 시자료와 제원 좌표가 확인되는 관측소를 우선하고, 그중 댐과의 직선거리가 가장 가까운 관측소를 선정",추후 수계도 확인 후 MANUAL_CONFIRMED로 변경 가능,,,,
2015110,합천,2015620,거창군(의동교),낙동강,35.70083333,127.92527778,,AUTO_SELECTED,"공식 API 연결 후보 중 실제 수위 시자료와 제원 좌표가 확인되는 관측소를 우선하고, 그중 댐과의 직선거리가 가장 가까운 관측소를 선정",추후 수계도 확인 후 MANUAL_CONFIRMED로 변경 가능,2026-05-27 10:00:00,0.8300,6.7000,K_WATER_HOURWAL
2018110,남강,2018645,산청군(경호교),낙동강,35.41805556,127.87444444,,AUTO_SELECTED,"공식 API 연결 후보 중 실제 수위 시자료와 제원 좌표가 확인되는 관측소를 우선하고, 그중 댐과의 직선거리가 가장 가까운 관측소를 선정",추후 수계도 확인 후 MANUAL_CONFIRMED로 변경 가능,2026-05-27 10:00:00,1.6800,72.9420,K_WATER_HOURWAL
2021110,밀양,9900007,밀양 수위감지,,,,,AUTO_SELECTED,"공식 API 연결 후보 중 실제 수위 시자료와 제원 좌표가 확인되는 관측소를 우선하고, 그중 댐과의 직선거리가 가장 가까운 관측소를 선정",추후 수계도 확인 후 MANUAL_CONFIRMED로 변경 가능,2026-05-27 10:00:00,185.5300,0.0000,K_WATER_HOURWAL
3001110,용담,3004620,금산군(적벽교),금강,36.04888889,127.59333333,13.38,AUTO_SELECTED,"공식 API 연결 후보 중 실제 수위 시자료와 제원 좌표가 확인되는 관측소를 우선하고, 그중 댐과의 직선거리가 가장 가까운 관측소를 선정",추후 수계도 확인 후 MANUAL_CONFIRMED로 변경 가능,2026-05-27 10:00:00,0.3400,21.0700,K_WATER_HOURWAL
3008110,대청,3012630,공주시(평소리),금강,36.50222222,126.98666667,,AUTO_SELECTED,"공식 API 연결 후보 중 실제 수위 시자료와 제원 좌표가 확인되는 관측소를 우선하고, 그중 댐과의 직선거리가 가장 가까운 관측소를 선정",추후 수계도 확인 후 MANUAL_CONFIRMED로 변경 가능,2026-05-27 10:00:00,0.2600,1.4600,K_WATER_HOURWAL
3203110,보령,3012630,공주시(평소리),금강,36.50222222,126.98666667,34.02,AUTO_SELECTED,"공식 API 연결 후보 중 실제 수위 시자료와 제원 좌표가 확인되는 관측소를 우선하고, 그중 댐과의 직선거리가 가장 가까운 관측소를 선정",추후 수계도 확인 후 MANUAL_CONFIRMED로 변경 가능,2026-05-27 10:00:00,0.2600,1.4600,K_WATER_HOURWAL
3303110,부안,9900003,부안 수위감지,,,,,AUTO_SELECTED,"공식 API 연결 후보 중 실제 수위 시자료와 제원 좌표가 확인되는 관측소를 우선하고, 그중 댐과의 직선거리가 가장 가까운 관측소를 선정",추후 수계도 확인 후 MANUAL_CONFIRMED로 변경 가능,2026-05-27 10:00:00,0.0000,0.0000,K_WATER_HOURWAL
4001110,섬진강,4001620,임실군(호암교),섬진강,35.66805556,127.24277778,,AUTO_SELECTED,"공식 API 연결 후보 중 실제 수위 시자료와 제원 좌표가 확인되는 관측소를 우선하고, 그중 댐과의 직선거리가 가장 가까운 관측소를 선정",추후 수계도 확인 후 MANUAL_CONFIRMED로 변경 가능,2026-05-27 10:00:00,0.8200,6.6400,K_WATER_HOURWAL
4007110,주암(본),4007630,보성군(가장교),섬진강,34.82805556,127.14972222,,AUTO_SELECTED,"공식 API 연결 후보 중 실제 수위 시자료와 제원 좌표가 확인되는 관측소를 우선하고, 그중 댐과의 직선거리가 가장 가까운 관측소를 선정",추후 수계도 확인 후 MANUAL_CONFIRMED로 변경 가능,2026-05-27 10:00:00,2.2700,9.3700,K_WATER_HOURWAL
4104610,주암(조),4008650,순천시(광천교),섬진강,35.13305556,127.40638889,11.95,AUTO_SELECTED,"공식 API 연결 후보 중 실제 수위 시자료와 제원 좌표가 확인되는 관측소를 우선하고, 그중 댐과의 직선거리가 가장 가까운 관측소를 선정",추후 수계도 확인 후 MANUAL_CONFIRMED로 변경 가능,2026-05-27 10:00:00,0.9200,0.0000,K_WATER_HOURWAL
5101110,장흥,5101620,장흥군(동산교),탐진강,34.81333333,126.89222222,6.86,AUTO_SELECTED,"공식 API 연결 후보 중 실제 수위 시자료와 제원 좌표가 확인되는 관측소를 우선하고, 그중 댐과의 직선거리가 가장 가까운 관측소를 선정",추후 수계도 확인 후 MANUAL_CONFIRMED로 변경 가능,2026-05-27 10:00:00,1.1800,0.0000,K_WATER_HOURWAL
